{"2414187396":{"location":[7.9246647,-72.078535],"tp":"SU","ts":"2023-11-03T12:48:49Z","tags":{"ele":"3360","name":"Cerro Colorado"}},"2517016189":{"location":[7.8696036,-72.2371285],"tp":"SU","ts":"2023-08-29T11:18:07Z","tags":{"name":"Cerro La Mantellina","wikidata":"Q31597533"}},"2517016309":{"location":[7.8789548,-72.2204709],"tp":"SU","ts":"2013-11-02T03:05:03Z","tags":{"name":"Cerro Mochileros"}},"2517023585":{"location":[7.7391971,-72.2148946],"tp":"SU","ts":"2013-11-02T03:31:57Z","tags":{"name":"Loma de Pío"}},"2517024343":{"location":[7.7245158,-72.2232416],"tp":"SU","ts":"2013-11-02T03:37:20Z","tags":{"name":"Loma de Pánaga"}},"2517025935":{"location":[7.7293207,-72.2043374],"tp":"SU","ts":"2013-11-02T03:52:34Z","tags":{"name":"Loma del Viento"}},"2517749317":{"location":[7.8037052,-72.3013901],"tp":"SU","ts":"2013-11-02T19:54:44Z","tags":{"name":"El Duende"}},"2517749318":{"location":[7.7898442,-72.3213458],"tp":"SU","ts":"2013-11-02T19:54:44Z","tags":{"name":"Páramo La Laja"}},"2564998507":{"location":[7.8124463,-72.3129909],"tp":"SU","ts":"2013-12-04T18:18:42Z","tags":{"name":"La Estilosa"}},"2659596864":{"location":[8.0210637,-72.1791497],"tp":"SU","ts":"2023-08-31T09:52:31Z","tags":{"lat":"8.0233333","lon":"-72.1766667","name":"Cerro Blanquizal","note":"lat, lon of LAT, LONG taken from the imported dataset, would actually not be necessary","wikidata":"Q31579635"}},"2659596877":{"location":[7.8942357,-72.3261974],"tp":"SU","ts":"2023-08-31T09:52:31Z","tags":{"lat":"7.8997222","lon":"-72.3294444","name":"Cerro Botadero","note":"lat, lon of LAT, LONG taken from the imported dataset, would actually not be necessary","wikidata":"Q31580727"}},"2659596945":{"location":[7.9553648,-72.2905834],"tp":"SU","ts":"2023-08-31T09:52:31Z","tags":{"lat":"7.9594444","lon":"-72.2866667","name":"Cerro Cabezas de Vaca","note":"lat, lon of LAT, LONG taken from the imported dataset, would actually not be necessary","wikidata":"Q31580549"}},"2659597079":{"location":[7.8964651,-72.1653669],"tp":"SU","ts":"2023-08-31T09:52:31Z","tags":{"lat":"7.9002778","lon":"-72.1636111","name":"Cerro El Ceibal","note":"lat, lon of LAT, LONG taken from the imported dataset, would actually not be necessary","wikidata":"Q31580791"}},"2659597213":{"location":[7.7478114,-72.3483682],"tp":"SU","ts":"2023-08-31T09:52:31Z","tags":{"lat":"7.7505556","lon":"-72.3472222","name":"Cerro El Indio","note":"lat, lon of LAT, LONG taken from the imported dataset, would actually not be necessary","wikidata":"Q31581082"}},"2659597214":{"location":[8.0031735,-72.2946529],"tp":"SU","ts":"2023-08-31T09:52:31Z","tags":{"lat":"8.0063889","lon":"-72.2938889","name":"Cerro El Morrachon","note":"lat, lon of LAT, LONG taken from the imported dataset, would actually not be necessary","wikidata":"Q31579739"}},"2659597292":{"location":[7.8041381,-72.3842128],"tp":"SU","ts":"2023-08-31T09:52:31Z","tags":{"lat":"7.8075","lon":"-72.3827778","name":"Cerro La Aguadita","note":"lat, lon of LAT, LONG taken from the imported dataset, would actually not be necessary","wikidata":"Q31580998"}},"2659597326":{"location":[7.9239583,-72.3270487],"tp":"SU","ts":"2023-08-31T09:52:31Z","tags":{"lat":"7.9294444","lon":"-72.3266667","name":"Cerro La Cuja","note":"lat, lon of LAT, LONG taken from the imported dataset, would actually not be necessary","wikidata":"Q31580680"}},"2659597334":{"location":[7.7336757,-72.3481447],"tp":"SU","ts":"2023-08-31T09:52:31Z","tags":{"lat":"7.7372222","lon":"-72.3463889","name":"Cerro La Escalera","note":"lat, lon of LAT, LONG taken from the imported dataset, would actually not be necessary","wikidata":"Q31581099"}},"2659597341":{"location":[7.8959506,-72.1916236],"tp":"SU","ts":"2024-10-20T18:02:53Z","tags":{"name":"Cerro La Loma"}},"2659597343":{"location":[7.8867279,-72.1002026],"tp":"SU","ts":"2023-08-31T09:52:31Z","tags":{"lat":"7.8883333","lon":"-72.1","name":"Cerro La Palmita","note":"lat, lon of LAT, LONG taken from the imported dataset, would actually not be necessary","wikidata":"Q31580807"}},"2659597345":{"location":[7.7267,-72.3266235],"tp":"SU","ts":"2023-08-31T09:52:31Z","tags":{"lat":"7.7294444","lon":"-72.325","name":"Cerro La Reina","note":"lat, lon of LAT, LONG taken from the imported dataset, would actually not be necessary","wikidata":"Q31581165"}},"2659597347":{"location":[8.0406587,-72.1845182],"tp":"SU","ts":"2023-08-31T09:52:31Z","tags":{"lat":"8.0433333","lon":"-72.1822222","name":"Cerro La Urbina","note":"lat, lon of LAT, LONG taken from the imported dataset, would actually not be necessary","wikidata":"Q31579622"}},"2659597356":{"location":[7.8596699,-72.4015294],"tp":"SU","ts":"2023-08-31T09:52:31Z","tags":{"lat":"7.8577778","lon":"-72.3908333","name":"Cerro Las Pilas","note":"lat, lon of LAT, LONG taken from the imported dataset, would actually not be necessary","wikidata":"Q31580886"}},"2659597357":{"location":[7.9512346,-72.3240367],"tp":"SU","ts":"2023-08-31T09:52:31Z","tags":{"lat":"7.9541667","lon":"-72.3222222","name":"Cerro Los Corrales","note":"lat, lon of LAT, LONG taken from the imported dataset, would actually not be necessary","wikidata":"Q31580532"}},"2659597361":{"location":[7.9896509,-72.1990106],"tp":"SU","ts":"2023-08-31T09:52:31Z","tags":{"lat":"7.9930556","lon":"-72.1980556","name":"Cerro Machado","note":"lat, lon of LAT, LONG taken from the imported dataset, would actually not be necessary","wikidata":"Q31580567"}},"2659597389":{"location":[7.7219218,-72.4085728],"tp":"SU","ts":"2023-08-31T09:52:31Z","tags":{"lat":"7.725","lon":"-72.4072222","name":"Cerro San Mateo","note":"lat, lon of LAT, LONG taken from the imported dataset, would actually not be necessary","wikidata":"Q31581181"}},"2659597393":{"location":[7.9805847,-72.4048788],"tp":"SU","ts":"2023-08-31T09:52:31Z","tags":{"lat":"7.9836111","lon":"-72.4027778","name":"Cerro Zamurito","note":"lat, lon of LAT, LONG taken from the imported dataset, would actually not be necessary","wikidata":"Q31580516"}},"2659597394":{"location":[7.7455769,-72.3989238],"tp":"SU","ts":"2023-08-31T09:52:31Z","tags":{"lat":"7.7488889","lon":"-72.3977778","name":"Cerro de Pajarita","note":"lat, lon of LAT, LONG taken from the imported dataset, would actually not be necessary","wikidata":"Q31581066"}},"2659597395":{"location":[8.053239,-72.2870758],"tp":"SU","ts":"2023-08-31T09:52:31Z","tags":{"lat":"8.0577778","lon":"-72.2797222","name":"Cuchilla de Macana","note":"lat, lon of LAT, LONG taken from the imported dataset, would actually not be necessary","wikidata":"Q31908883"}},"2659597396":{"location":[7.7927816,-72.3333237],"tp":"SU","ts":"2023-08-31T09:52:31Z","tags":{"lat":"7.7963889","lon":"-72.3325","name":"Fila Barro Amarillo","note":"lat, lon of LAT, LONG taken from the imported dataset, would actually not be necessary","wikidata":"Q31580982"}},"2659597399":{"location":[7.9937345,-72.0944354],"tp":"SU","ts":"2024-10-20T18:02:53Z","tags":{"name":"Loma La Cruz"}},"2659597400":{"location":[8.0349384,-72.0753439],"tp":"SU","ts":"2023-08-31T09:52:31Z","tags":{"lat":"8.0369444","lon":"-72.0727778","name":"Loma La Hoyada","note":"lat, lon of LAT, LONG taken from the imported dataset, would actually not be necessary","wikidata":"Q31579667"}},"2659597403":{"location":[7.8739139,-72.1132874],"tp":"SU","ts":"2023-08-31T09:52:31Z","tags":{"lat":"7.8763889","lon":"-72.1116667","name":"Loma de Buey","note":"lat, lon of LAT, LONG taken from the imported dataset, would actually not be necessary","wikidata":"Q31580871"}},"2659597411":{"location":[7.9292495,-72.1512681],"tp":"SU","ts":"2023-08-31T09:52:31Z","tags":{"lat":"7.9363889","lon":"-72.1438889","name":"Loma de Piedra","note":"lat, lon of LAT, LONG taken from the imported dataset, would actually not be necessary","wikidata":"Q31580664"}},"2659597415":{"location":[7.9751822,-72.1139674],"tp":"SU","ts":"2023-08-31T09:52:31Z","tags":{"ele":"2700","lat":"7.9819444","lon":"-72.1113889","name":"Paramo Almorzadero","note":"lat, lon of LAT, LONG taken from the imported dataset, would actually not be necessary","wikidata":"Q31580600"}},"2659597416":{"location":[7.9849227,-72.1627764],"tp":"SU","ts":"2023-08-31T09:52:31Z","tags":{"lat":"7.9883333","lon":"-72.1602778","name":"Páramo Angaraveca","note":"lat, lon of LAT, LONG taken from the imported dataset, would actually not be necessary","wikidata":"Q31580584"}},"2659597418":{"location":[7.805524,-72.1376217],"tp":"SU","ts":"2023-08-31T09:52:31Z","tags":{"lat":"7.8091667","lon":"-72.1366667","name":"Paramo El Pino","note":"lat, lon of LAT, LONG taken from the imported dataset, would actually not be necessary","wikidata":"Q31580917"}},"2659597421":{"location":[7.7794842,-72.1509155],"tp":"SU","ts":"2023-08-31T09:52:31Z","tags":{"lat":"7.7819444","lon":"-72.1527778","name":"Paramo Moraleño","note":"lat, lon of LAT, LONG taken from the imported dataset, would actually not be necessary","wikidata":"Q31580949"}},"2659597425":{"location":[7.9404948,-72.4012425],"tp":"SU","ts":"2024-10-20T18:02:53Z","tags":{"name":"Pico El Rayo"}},"2659597432":{"location":[7.7899648,-72.1358719],"tp":"SU","ts":"2024-10-20T18:02:53Z","tags":{"name":"Cerro El Oso"}},"2659597437":{"location":[7.9290579,-72.1061121],"tp":"SU","ts":"2024-10-20T18:02:53Z","tags":{"name":"Páramo Los Muertos"}},"2659597438":{"location":[7.8069323,-72.3540285],"tp":"SU","ts":"2024-10-20T18:02:53Z","tags":{"name":"Páramo Salado Negro"}},"2659597440":{"location":[7.9780815,-72.086116],"tp":"SU","ts":"2024-10-20T18:02:53Z","tags":{"name":"Páramo Zumbador"}},"2659597441":{"location":[7.8292239,-72.1200781],"tp":"SU","ts":"2024-10-20T18:02:53Z","tags":{"name":"Páramo de Guarín"}},"2659597447":{"location":[7.7619229,-72.1649053],"tp":"SU","ts":"2014-02-07T15:45:04Z","tags":{"name":"Serranía de La Maravilla"}},"2987143250":{"location":[7.9056656,-72.1157653],"tp":"SU","ts":"2014-07-30T03:37:49Z","tags":{"name":"Cerro El Caney"}},"2987143253":{"location":[8.0237347,-72.2077639],"tp":"SU","ts":"2014-07-30T03:37:50Z","tags":{"name":"Cerro Patio de Brujas"}},"2987143267":{"location":[7.7605935,-72.3864257],"tp":"SU","ts":"2014-07-30T03:37:50Z","tags":{"name":"Fila De Capote"}},"2987143279":{"location":[8.0364754,-72.1614432],"tp":"SU","ts":"2014-07-30T03:37:51Z","tags":{"name":"Fila Loma Quemada"}},"2987143282":{"location":[7.8604642,-72.3044951],"tp":"SU","ts":"2014-07-30T03:37:51Z","tags":{"name":"Fila Palo Gordo"}},"2987143283":{"location":[7.8645331,-72.3128091],"tp":"SU","ts":"2014-07-30T03:37:51Z","tags":{"name":"Fila Palo Grande"}},"2987143284":{"location":[7.9066483,-72.3517647],"tp":"SU","ts":"2014-07-30T03:37:51Z","tags":{"name":"Fila Peñas Negras"}},"2987143285":{"location":[7.8819357,-72.3041487],"tp":"SU","ts":"2014-07-30T03:37:51Z","tags":{"name":"Fila Potrero Grande"}},"2987143286":{"location":[7.8711183,-72.3961906],"tp":"SU","ts":"2014-07-30T03:37:51Z","tags":{"name":"Fila Verde"}},"3228820224":{"location":[7.8983245,-72.3803291],"tp":"SU","ts":"2014-12-10T21:43:43Z","tags":{"name":"Cerro El Judío"}},"12706159812":{"location":[8.0113889,-72.3508333],"tp":"SU","ts":"2025-03-28T00:30:16Z","tags":{"ele":"1691","name":"Cerro Mocojun"}}}